{    "0001": {
        "sno": "0001",
        "sna": "捷運市政府站(3號出口)",
        "tot": "180",
        "sbi": "180",
        "sarea": "信義區",
        "mday": "20170325204426",
        "lat": "25.0408578889",
        "lng": "121.567904444",
        "ar": "忠孝東路\/松仁路(東南側)",
        "sareaen": "Xinyi Dist.",
        "snaen": "MRT Taipei City Hall Stataion(Exit 3)-2",
        "aren": "The S.W. side of Road Zhongxiao East Road & Road Chung Yan.",
        "bemp": "0",
        "act": "1"
    },
    "0002": {
        "sno": "0002",
        "sna": "捷運國父紀念館站(2號出口)",
        "tot": "48",
        "sbi": "48",
        "sarea": "大安區",
        "mday": "20170325204441",
        "lat": "25.041254",
        "lng": "121.55742",
        "ar": "忠孝東路四段\/光復南路口(西南側)",
        "sareaen": "Daan Dist.",
        "snaen": "MRT S.Y.S Memorial Hall Stataion(Exit 2.)",
        "aren": "Sec,4. Zhongxiao E.Rd\/GuangFu S. Rd",
        "bemp": "0",
        "act": "1"
    },
    "0003": {
        "sno": "0003",
        "sna": "台北市政府",
        "tot": "40",
        "sbi": "0",
        "sarea": "信義區",
        "mday": "20170325204441",
        "lat": "25.0377972222",
        "lng": "121.565169444",
        "ar": "台北市政府東門(松智路)",
        "sareaen": "Xinyi Dist.",
        "snaen": "Taipei City Hall",
        "aren": "Taipei City Government Eastgate (Song Zhi Road)",
        "bemp": "0",
        "act": "0"
    },
    "0004": {
        "sno": "0004",
        "sna": "市民廣場",
        "tot": "60",
        "sbi": "60",
        "sarea": "信義區",
        "mday": "20170325204421",
        "lat": "25.0360361111",
        "lng": "121.562325",
        "ar": "市府路\/松壽路(西北側)",
        "sareaen": "Xinyi Dist.",
        "snaen": "Citizen Square",
        "aren": "The N.W. side of Road Shifu & Road Song Shou.",
        "bemp": "0",
        "act": "1"
    },
    "0005": {
        "sno": "0005",
        "sna": "興雅國中",
        "tot": "60",
        "sbi": "60",
        "sarea": "信義區",
        "mday": "20170325204426",
        "lat": "25.0365638889",
        "lng": "121.5686639",
        "ar": "松仁路\/松仁路95巷(東南側)",
        "sareaen": "Xinyi Dist.",
        "snaen": "Xingya Jr. High School",
        "aren": "The S.E. side of Road Songren & Ln. 95, Songren Rd..",
        "bemp": "0",
        "act": "1"
    },
    "0006": {
        "sno": "0006",
        "sna": "世貿二館",
        "tot": "80",
        "sbi": "80",
        "sarea": "信義區",
        "mday": "20170325204431",
        "lat": "25.0347361111",
        "lng": "121.565658333",
        "ar": "松智路\/松廉路(東北側)",
        "sareaen": "Xinyi Dist.",
        "snaen": "TWTC Exhibition Hall 2",
        "aren": "The N.E. side of Road Song Zhi & Road Song Lian.",
        "bemp": "0",
        "act": "1"
    },
    "0007": {
        "sno": "0007",
        "sna": "信義廣場(台北101)",
        "tot": "80",
        "sbi": "0",
        "sarea": "信義區",
        "mday": "20170325204342",
        "lat": "25.0330388889",
        "lng": "121.565619444",
        "ar": "松智路\/信義路(東北側)",
        "sareaen": "Xinyi Dist.",
        "snaen": "Xinyi Square(Taipei 101)",
        "aren": "The N.E. side of Road Song Zhi & Road Xinyi.",
        "bemp": "0",
        "act": "0"
    },
    "0008": {
        "sno": "0008",
        "sna": "世貿三館",
        "tot": "60",
        "sbi": "60",
        "sarea": "信義區",
        "mday": "20170325204432",
        "lat": "25.0352138889",
        "lng": "121.563688889",
        "ar": "市府路\/松壽路(東南側)",
        "sareaen": "Xinyi Dist.",
        "snaen": "TWTC Exhibition Hall 3",
        "aren": "The S.E. side of Road Shifu & Road Song Shou.",
        "bemp": "0",
        "act": "1"
    },
    "0009": {
        "sno": "0009",
        "sna": "松德站",
        "tot": "40",
        "sbi": "40",
        "sarea": "信義區",
        "mday": "20170325204437",
        "lat": "25.03159",
        "lng": "121.574353",
        "ar": "台北市信義區松德路300號",
        "sareaen": "Xinyi Dist.",
        "snaen": "Songde",
        "aren": "No.300, Songde Rd.(32)",
        "bemp": "0",
        "act": "1"
    },
    "0010": {
        "sno": "0010",
        "sna": "台北市災害應變中心",
        "tot": "54",
        "sbi": "54",
        "sarea": "信義區",
        "mday": "20170325204423",
        "lat": "25.0286611111",
        "lng": "121.566116667",
        "ar": "台北市信義區莊敬路391巷11弄2號",
        "sareaen": "Xinyi Dist.",
        "snaen": "Emergency Operations Center of Taipei City",
        "aren": "No.2, Aly. 11, Ln. 391, Zhuangjing Rd.",
        "bemp": "0",
        "act": "1"
    }
  }
